{
  "data": [
    {
      "name": "Mouad Sellak",
      "image": "./img/avatar.jpg",
      "progress": "50%",
      "pos":{
        "lat": 48.02854233910342,
        "lng": 0.21406909053153916
      }
    },
    {
      "name": "Zakaria Loukili",
      "image": "./img/zaki.png",
      "progress": "70%",
      "pos":{
        "lat": 48.03124233910342,
        "lng": 0.25206909053153916
      }
    },

    {
      "name": "Duc",
      "image": "./img/duc.jpeg",
      "progress": "30%",
      "pos":{
        "lat": 48.00424233910342,
        "lng": 0.35206909053153916
      }
    },
    {
      "name": "Charles oliveira",
      "image": "./img/charles.jpg",
      "progress": "55%",
      "pos":{
        "lat": 48.00124233910342,
        "lng": 0.45206909053153916
      }
    },
    {
      "name": "Emilie Hernandez",
      "image": "./img/emilie.jpeg",
      "progress": "20%",
      "pos":{
        "lat": 48.00924233910342,
        "lng": 0.50206909053153916
      }
    },
    {
      "name": "Amine harit",
      "image": "./img/amine.webp",
      "progress": "90%",
      "pos":{
        "lat": 48.06064233910342,
        "lng": 0.25206909053153916
      }
    },
    {
      "name": "Kim Kardashian",
      "image": "./img/kim.jpg",
      "progress": "100%",
      "pos":{
        "lat": 48.08024233910342,
        "lng": 0.15206909053153916
      }
    },
    {
      "name": "Cristiano Ronaldo",
      "image": "./img/siu.jpg",
      "progress": "100%",
      "pos":{
        "lat": 48.09524233910342,
        "lng": 0.08006909053153916
      }
    }
  ]
}
